City_ID,City,Lat,Lng,Max Temp,Humidity,Cloudiness,Wind Speed,Country,Date
0,punta arenas,-53.15,-70.9167,1.06,93,100,4.63,CL,1718155599
1,stanley,54.868,-1.6985,7.93,93,75,1.03,GB,1718155599
2,udachny,66.4167,112.4,20.25,42,93,2.46,RU,1718155599
3,comodoro rivadavia,-45.8667,-67.5,11.92,62,0,5.14,AR,1718155024
4,bethel,41.3712,-73.414,19.25,77,0,2.06,US,1718155334
5,indramayu,-6.3264,108.32,27.22,79,9,1.9,ID,1718155599
6,lihue,21.9789,-159.3672,30.58,70,20,7.2,US,1718155599
7,kupang,-10.1667,123.5833,32.32,66,20,5.14,ID,1718155599
8,puerto natales,-51.7236,-72.4875,-1.88,93,26,1.54,CL,1718155599
9,touros,-5.1989,-35.4608,24.14,93,11,4.51,BR,1718155599
10,enewetak,11.3474,162.3373,28.23,79,30,8.66,MH,1718155599
11,hasaki,35.7333,140.8333,27.94,75,100,6.04,JP,1718155599
12,lebu,-37.6167,-73.65,12.84,93,100,9.4,CL,1718155599
13,port-aux-francais,-49.35,70.2167,1.55,68,98,17.24,TF,1718155600
14,ushuaia,-54.8,-68.3,-3.19,80,0,2.06,AR,1718155448
15,iqaluit,63.7506,-68.5145,1.85,80,75,8.23,CA,1718155600
16,yellowknife,62.456,-114.3525,16.34,70,75,4.12,CA,1718155390
17,cova figueira,14.8905,-24.2934,18.31,85,27,3.59,CV,1718155600
18,san-pedro,4.7485,-6.6363,25.55,87,100,3.13,CI,1718155600
19,ilulissat,69.2167,-51.1,3.01,93,100,2.57,GL,1718155600
20,vallo della lucania,40.2297,15.2658,19.75,74,100,1.8,IT,1718155600
21,albany,42.6001,-73.9662,17.23,77,70,0.45,US,1718155499
22,georgetown,5.4112,100.3354,29.96,80,20,2.06,MY,1718155600
23,nar'yan-mar,67.6713,53.087,6.73,90,100,3.58,RU,1718155600
24,papatowai,-46.5619,169.4708,7.17,65,100,4.09,NZ,1718155600
25,talnakh,69.4865,88.3972,5.11,89,100,3.71,RU,1718155600
26,edinburgh of the seven seas,-37.0676,-12.3116,13.8,87,64,13.67,SH,1718155600
27,ust-nera,64.5667,143.2,16.46,37,38,1.76,RU,1718155600
28,waitangi,-43.9535,-176.5597,10.46,82,59,1.79,NZ,1718155391
29,bilibino,68.0546,166.4372,18.65,34,76,2.78,RU,1718155600
30,grytviken,-54.2811,-36.5092,-7.97,76,16,4.83,GS,1718155600
31,ketchikan,55.3422,-131.6461,14.26,77,100,4.63,US,1718155509
32,margaret river,-33.95,115.0667,14.3,79,49,1.6,AU,1718155601
33,port augusta,-32.5,137.7667,15.93,74,87,1.92,AU,1718155601
34,adamstown,-25.066,-130.1015,22.15,84,100,6.87,PN,1718155601
35,thompson,55.7435,-97.8558,14.09,77,75,4.63,CA,1718155601
36,kuanda,56.3161,116.0806,19.74,50,96,0.6,RU,1718155601
37,fort bragg,35.139,-79.006,25.51,66,0,1.54,US,1718155601
38,zambezi,-13.5432,23.1047,9.13,65,0,2.63,ZM,1718155601
39,anadyr,64.75,177.4833,9.28,61,0,7.0,RU,1718155601
40,west island,-12.1568,96.8225,25.99,94,100,3.6,CC,1718155601
41,moree,-29.4667,149.85,17.73,45,0,6.49,AU,1718155601
42,padang,-0.9492,100.3543,26.03,76,93,1.02,ID,1718155601
43,vernon,50.2581,-119.2691,22.64,25,0,4.63,CA,1718155601
44,colonia,50.9333,6.95,9.97,84,0,1.54,DE,1718155536
45,shurugwi,-19.6702,30.0059,4.79,90,0,0.86,ZW,1718155601
46,arraial do cabo,-22.9661,-42.0278,23.28,75,0,2.79,BR,1718155590
47,tommot,58.9564,126.2925,21.44,41,22,1.46,RU,1718155601
48,taltal,-25.4,-70.4833,16.94,76,0,1.45,CL,1718155601
49,al khums,32.6486,14.2619,30.39,40,100,4.29,LY,1718155601
50,bubaque,11.2833,-15.8333,25.25,82,100,9.8,GW,1718155601
51,puerto ayora,-0.7393,-90.3518,21.97,98,26,3.18,EC,1718155601
52,jamestown,42.097,-79.2353,14.45,84,100,0.45,US,1718155601
53,manaquiri,-3.3167,-60.35,26.27,100,29,1.18,BR,1718155602
54,suihua,46.6406,126.9969,21.2,52,6,5.05,CN,1718155602
55,blackmans bay,-43.0167,147.3167,8.07,76,68,1.34,AU,1718155602
56,hotan,37.0997,79.9269,26.29,25,72,1.28,CN,1718155602
57,dhidhdhoo,6.8833,73.1,29.05,78,100,7.1,MV,1718155602
58,halden,59.1226,11.3871,12.24,86,93,1.17,NO,1718155602
59,isafjordur,66.0755,-23.124,7.37,66,62,1.85,IS,1718155602
60,kargopol',61.5071,38.9456,11.48,82,100,1.28,RU,1718155602
61,hilo,19.7297,-155.09,27.36,77,100,3.6,US,1718155602
62,saldanha,-33.0117,17.9442,14.03,88,0,6.1,ZA,1718155602
63,tiksi,71.6872,128.8694,2.61,78,41,1.82,RU,1718155602
64,tura,25.5198,90.2201,26.97,89,100,1.22,IN,1718155602
65,susuman,62.7833,148.1667,13.32,37,17,2.24,RU,1718155602
66,zhezqazghan,47.7833,67.7667,17.32,51,0,4.0,KZ,1718155602
67,cabo san lucas,22.8909,-109.9124,32.17,48,0,3.13,MX,1718155602
68,salinopolis,-0.6136,-47.3561,26.22,86,45,5.22,BR,1718155602
69,hami,42.8,93.45,30.93,16,25,4.9,CN,1718155602
70,pathein,16.7833,94.7333,26.95,86,100,3.82,MM,1718155602
71,codrington,-38.2667,141.9667,11.73,58,100,6.55,AU,1718155602
72,acarau,-2.8856,-40.12,24.77,88,11,4.26,BR,1718155602
73,mogocha,53.7333,119.7667,20.3,38,99,2.18,RU,1718155603
74,saipan,15.1355,145.701,30.39,84,75,2.06,MP,1718155603
75,changji,44.0167,87.3167,27.44,28,0,4.0,CN,1718155603
76,newman,37.3138,-121.0208,37.25,12,0,3.88,US,1718155603
77,happy valley-goose bay,53.3168,-60.3315,11.17,76,20,3.09,CA,1718155603
78,saudarkrokur,65.7461,-19.6394,8.33,70,8,0.63,IS,1718155603
79,picayune,30.5255,-89.6795,29.92,80,17,1.04,US,1718155558
80,kodiak,57.79,-152.4072,8.73,76,100,4.63,US,1718155603
81,egilsstadir,65.2653,-14.3948,2.95,93,100,2.57,IS,1718155603
82,kingston,17.997,-76.7936,30.53,74,20,7.72,JM,1718155564
83,hawaiian paradise park,19.5933,-154.9731,27.24,74,100,3.6,US,1718155603
84,diamantino,-14.4086,-56.4461,21.78,46,4,1.97,BR,1718155306
85,teshi old town,5.5836,-0.1072,26.31,89,20,1.03,GH,1718155603
86,whitehorse,60.7161,-135.0538,16.68,37,75,4.63,CA,1718155603
87,chonchi,-42.6128,-73.8092,11.56,96,100,2.13,CL,1718155603
88,kabwe,-14.4469,28.4464,8.97,70,0,2.41,ZM,1718155603
89,donggang,28.9365,114.2259,26.62,84,48,0.95,CN,1718155603
90,lambarene,-0.7001,10.2406,22.18,92,21,0.48,GA,1718155435
91,ivins,37.1686,-113.6794,38.62,7,0,4.02,US,1718155603
92,kayangel,8.0823,134.7173,28.54,73,98,2.37,PW,1718155603
93,kone,-21.0595,164.8658,25.76,45,4,2.96,NC,1718155603
94,northam,51.0333,-4.2167,11.45,75,23,1.97,GB,1718155603
95,crane,31.3974,-102.3501,33.11,29,0,3.78,US,1718155604
96,nemuro,43.3236,145.575,12.22,93,91,0.97,JP,1718155604
97,moyynkum,44.2914,72.9469,21.73,53,4,5.71,KZ,1718155604
98,mount pearl,47.5166,-52.7813,15.25,79,75,6.17,CA,1718155535
99,bikenibeu village,1.3673,173.1241,30.98,74,20,4.12,KI,1718155604
100,crateus,-5.1783,-40.6775,22.62,65,6,1.21,BR,1718155604
101,st. john's,47.5649,-52.7093,15.71,79,75,6.17,CA,1718155324
102,navan,53.6528,-6.6814,8.65,91,11,2.09,IE,1718155604
103,hermanus,-34.4187,19.2345,16.56,80,11,11.18,ZA,1718155604
104,avarua,-21.2078,-159.775,25.03,57,20,6.69,CK,1718155604
105,bredasdorp,-34.5322,20.0403,14.43,71,1,9.71,ZA,1718155604
106,alesund,62.4723,6.1549,9.86,79,75,4.63,NO,1718155604
107,bandarbeyla,9.4942,50.8122,26.32,75,91,10.7,SO,1718155604
108,manokwari,-0.8667,134.0833,26.66,80,100,1.2,ID,1718155604
109,invercargill,-46.4,168.35,5.01,76,100,1.79,NZ,1718155604
110,bengkulu,-3.8004,102.2655,25.72,86,27,1.46,ID,1718155560
111,dubrovnik,42.6481,18.0922,24.8,53,0,3.6,HR,1718155604
112,outjo,-20.1167,16.15,12.16,40,0,4.36,NA,1718155605
113,new norfolk,-42.7826,147.0587,8.72,78,100,2.72,AU,1718155605
114,rio grande,-32.035,-52.0986,17.75,93,100,5.83,BR,1718155605
115,san antonio de pale,-1.4014,5.6325,24.79,83,100,4.2,GQ,1718155605
116,hwange,-18.3693,26.5019,11.0,50,1,1.28,ZW,1718155605
117,aktobe,50.2797,57.2072,17.05,63,0,1.0,KZ,1718155605
118,rawson,-43.3002,-65.1023,12.52,58,100,2.69,AR,1718155605
119,waingapu,-9.6567,120.2641,26.47,69,16,4.59,ID,1718155605
120,sanctuary point,-35.1114,150.629,17.64,54,13,7.07,AU,1718155605
121,gadzhiyevo,69.2551,33.3362,5.82,94,100,4.01,RU,1718155605
122,fortuna,40.5982,-124.1573,17.19,79,0,6.17,US,1718155605
123,nishinoomote,30.7333,131.0,24.31,94,75,4.63,JP,1718155605
124,hithadhoo,-0.6,73.0833,28.35,74,100,3.11,MV,1718155605
125,santarem,-2.4431,-54.7083,26.07,89,0,2.06,BR,1718155492
126,tapa,59.2606,25.9586,9.64,98,100,1.7,EE,1718155605
127,badger,64.8,-147.5333,22.95,54,75,2.57,US,1718155605
128,lukolela,-1.0605,17.1821,22.66,58,100,1.41,CD,1718155605
129,isangel,-19.55,169.2667,24.72,74,39,4.28,VU,1718155605
130,san andres,12.5847,-81.7006,29.01,84,20,1.03,CO,1718155605
131,naliya,23.2667,68.8333,28.91,72,14,6.88,IN,1718155605
132,lagoa,39.05,-27.9833,18.57,64,49,1.29,PT,1718155605
133,kabalo,-6.05,26.9167,21.6,50,74,2.64,CD,1718155605
134,port mathurin,-19.6833,63.4167,24.02,73,56,10.26,MU,1718155606
135,ribas do rio pardo,-20.4431,-53.7592,19.99,41,0,1.02,BR,1718155606
136,howrah,22.5892,88.3103,31.0,84,40,3.6,IN,1718155606
137,hadibu,12.65,54.0333,27.75,77,86,6.66,YE,1718155606
138,keflavik,64.0049,-22.5624,10.24,87,75,5.14,IS,1718155606
139,longyearbyen,78.2186,15.6401,4.91,75,40,4.12,SJ,1718155606
140,la passe,45.5549,-0.8967,14.13,81,100,4.35,FR,1718155606
141,fale old settlement,-9.3852,-171.2468,28.68,74,43,3.02,TK,1718155606
142,ancud,-41.8697,-73.8203,11.58,90,100,5.16,CL,1718155606
143,santo antonio do ica,-3.1022,-67.9397,24.51,94,64,0.5,BR,1718155606
144,kununurra,-15.7667,128.7333,25.99,41,69,3.09,AU,1718155606
145,klyuchi,52.2667,79.1667,14.28,86,100,4.29,RU,1718155606
146,vilyuchinsk,52.9306,158.4028,10.15,90,99,2.11,RU,1718155606
147,yuzhno-kurilsk,44.0306,145.8556,14.89,80,39,2.83,RU,1718155606
148,pervomayskiy,53.2485,40.2871,18.46,70,9,3.3,RU,1718155606
149,vallet,47.1667,-1.2667,8.71,94,11,2.77,FR,1718155606
150,mount isa,-20.7333,139.5,24.87,23,0,6.19,AU,1718155606
151,uturoa,-16.7333,-151.4333,25.79,71,100,8.55,PF,1718155606
152,korsakov,46.6328,142.7813,13.91,94,100,0.92,RU,1718155606
153,ribeira grande,38.5167,-28.7,17.65,87,88,2.68,PT,1718155606
154,bamboo flat,11.7,92.7167,30.05,79,40,4.63,IN,1718155606
155,huarmey,-10.0681,-78.1522,18.54,84,81,2.93,PE,1718155607
156,south hedland,-20.4089,118.5983,25.96,25,0,3.6,AU,1718155607
157,tabas,33.5959,56.9244,30.08,15,14,2.41,IR,1718155607
158,kismayo,-0.3582,42.5454,25.61,80,74,7.05,SO,1718155607
159,dalandzadgad,43.5708,104.425,21.49,39,22,10.37,MN,1718155607
160,olonkinbyen,70.9221,-8.7187,-1.01,84,37,0.51,SJ,1718155607
161,arar,30.9753,41.0381,27.01,13,0,0.0,SA,1718155607
162,laichingen,48.4894,9.6861,8.84,99,6,1.4,DE,1718155607
163,petropavlovsk-kamchatsky,53.0452,158.6483,9.33,90,75,4.47,RU,1718155607
164,brookings,44.3114,-96.7984,26.19,46,0,3.09,US,1718155420
165,timbuktu,16.7735,-3.0074,34.33,29,42,4.79,ML,1718155607
166,hafar al-batin,28.4328,45.9708,31.32,16,40,2.06,SA,1718155607
167,morwell,-38.2333,146.4,9.67,62,83,3.76,AU,1718155607
168,kerikeri,-35.2268,173.9474,14.88,52,0,0.75,NZ,1718155607
169,keyser,39.4409,-78.9739,18.4,87,30,1.8,US,1718155607
170,college,64.8569,-147.8028,22.99,52,75,2.57,US,1718155607
171,port lincoln,-34.7333,135.8667,15.22,72,93,3.45,AU,1718155607
172,pariaman,-0.619,100.12,26.03,73,42,1.25,ID,1718155607
173,bataipora,-22.2953,-53.2711,20.42,48,0,2.69,BR,1718155607
174,olinda,-8.0089,-34.8553,24.85,94,75,3.6,BR,1718155464
175,berdyansk,46.7503,36.7944,22.55,64,16,0.99,UA,1718155607
176,papao,-17.75,-149.55,27.82,72,57,10.17,PF,1718155607
177,igarka,67.4667,86.5833,8.34,77,100,4.92,RU,1718155608
178,kapa'a,22.0752,-159.319,30.99,77,20,7.2,US,1718155608
179,lata,40.1629,-8.3327,13.93,98,15,0.95,PT,1718155608
180,witu,-2.3889,40.4382,24.87,81,92,6.7,KE,1718155608
181,aasiaat,68.7098,-52.8699,1.16,92,100,2.09,GL,1718155608
182,westport,41.1415,-73.3579,20.9,68,100,2.57,US,1718155421
183,santa ana,33.7456,-117.8678,26.91,76,75,4.63,US,1718155525
184,alvaraes,-3.2208,-64.8042,24.54,93,19,1.37,BR,1718155608
185,denov,38.2667,67.9,27.89,30,5,3.08,UZ,1718155608
186,erzincan,39.75,39.5,10.61,76,0,1.03,TR,1718155608
187,pesqueira,-8.3578,-36.6964,17.41,97,46,2.46,BR,1718155535
188,kitami,43.8031,143.8908,24.7,56,12,1.45,JP,1718155608
189,port elizabeth,-33.918,25.5701,22.16,43,0,5.14,ZA,1718155608
190,khandyga,62.6667,135.6,21.43,36,81,1.9,RU,1718155608
191,menaka,15.9182,2.4022,28.71,61,0,9.21,ML,1718155608
192,suomussalmi,64.8869,28.9078,6.32,97,14,2.0,FI,1718155608
193,berekum,7.4534,-2.584,22.18,99,48,1.95,GH,1718155608
194,kalemie,-5.9475,29.1947,22.47,74,15,6.12,CD,1718155608
195,ar rutbah,33.0381,40.2848,26.24,26,0,4.31,IQ,1718155608
196,lenoir city,35.7973,-84.256,21.87,65,88,0.45,US,1718155506
197,chilecito,-29.1619,-67.4974,13.55,54,6,0.98,AR,1718155340
198,seydi,39.4816,62.9137,29.94,22,73,6.0,TM,1718155608
199,ulaangom,49.9811,92.0667,18.52,54,98,1.66,MN,1718155608
200,praia da vitoria,38.7333,-27.0667,19.14,82,20,0.63,PT,1718155609
201,leh,34.1667,77.5833,6.95,37,5,1.3,IN,1718155609
202,kham sakae saeng,15.3322,102.1728,29.25,69,84,5.05,TH,1718155609
203,katsuura,35.1333,140.3,23.41,79,92,4.1,JP,1718155609
204,yesilhisar,38.3497,35.0867,19.19,49,0,1.24,TR,1718155339
205,boa vista,2.8197,-60.6733,28.99,79,40,1.54,BR,1718155565
206,delta,5.5,6.0,23.63,97,100,1.22,NG,1718155609
207,mont-tremblant,46.1949,-74.6264,14.21,88,100,1.03,CA,1718155405
208,zajecar,43.9036,22.2641,19.13,88,4,1.82,RS,1718155609
209,wailua homesteads,22.0669,-159.378,30.24,77,20,7.2,US,1718155609
210,zelenchukskaya,43.858,41.5894,12.32,91,4,2.77,RU,1718155609
211,san juan de miraflores,-12.1629,-76.9635,18.43,85,99,2.49,PE,1718155609
212,prince rupert,54.3161,-130.3201,11.83,96,100,10.29,CA,1718155609
213,ribeira brava,32.65,-17.0667,19.35,74,35,1.69,PT,1718155609
214,san patricio,28.017,-97.5169,31.4,60,3,5.8,US,1718155609
215,yeppoon,-23.1333,150.7333,25.14,41,0,2.57,AU,1718155609
216,rouyn-noranda,48.2398,-79.0288,18.05,45,20,3.6,CA,1718155322
217,tralee,52.2704,-9.7026,6.53,90,24,0.05,IE,1718155609
218,kyren,51.6828,102.1408,12.19,80,56,0.45,RU,1718155609
219,laguna,38.421,-121.4238,39.66,32,0,3.09,US,1718155609
220,grand falls-windsor,48.9332,-55.6649,11.84,98,85,2.72,CA,1718155610
221,cestos city,5.46,-9.5828,26.07,86,100,4.51,LR,1718155610
222,san luis de la loma,17.2706,-100.8939,27.31,76,3,2.1,MX,1718155610
223,zigong,29.3416,104.7769,24.59,73,100,0.84,CN,1718155610
224,al hayy,32.1735,46.0433,32.38,18,0,3.78,IQ,1718155610
225,kirakira,-10.4544,161.9205,29.03,77,36,0.83,SB,1718155610
226,valley city,46.9233,-98.0032,24.29,46,0,4.12,US,1718155610
227,cockburn town,21.4612,-71.1419,27.9,88,100,8.71,TC,1718155610
228,senillosa,-39.0,-68.4167,9.88,76,100,0.84,AR,1718155610
229,kavaratti,10.5669,72.642,28.42,81,100,7.02,IN,1718155610
230,yoakum,29.2878,-97.1519,27.91,55,37,7.49,US,1718155610
231,vorgashor,67.5833,63.95,5.45,69,100,3.23,RU,1718155610
232,carnarvon,-24.8667,113.6333,19.25,86,100,2.45,AU,1718155610
233,port douglas,-16.4833,145.4667,23.0,61,9,1.59,AU,1718155610
234,pacasmayo,-7.4006,-79.5714,18.44,84,100,4.27,PE,1718155610
235,lorengau,-2.0226,147.2712,29.19,75,98,1.22,PG,1718155610
236,kolonia,50.9333,6.95,9.97,84,0,1.54,DE,1718155536
237,tshabong,-26.05,22.45,10.47,39,46,5.56,BW,1718155610
238,champerico,14.3,-91.9167,27.81,80,60,4.17,GT,1718155610
239,kristiansund,63.1115,7.732,8.03,87,100,3.09,NO,1718155610
240,magadan,59.5667,150.8,13.07,72,98,2.66,RU,1718155611
241,trairi,-3.2778,-39.2689,24.53,91,5,2.58,BR,1718155413
242,porec,45.2258,13.5939,19.99,87,100,5.19,HR,1718155611
243,urangan,-25.3,152.9,19.64,49,0,4.86,AU,1718155378
244,archangelos,36.2149,28.1149,23.99,38,0,2.85,GR,1718155611
245,carbonear,47.7332,-53.2148,15.97,83,100,3.51,CA,1718155611
246,morinville,53.8001,-113.652,13.78,89,100,7.2,CA,1718155611
247,lensk,60.7253,114.9278,22.86,44,5,1.84,RU,1718155611
248,owase,34.0667,136.2,24.08,63,82,2.59,JP,1718155611
249,chibougamau,49.9168,-74.3659,15.79,72,0,2.57,CA,1718155611
250,ketrzyn,54.0768,21.3753,7.45,96,0,3.68,PL,1718155611
251,bairnsdale,-37.8333,147.6167,11.7,74,92,2.24,AU,1718155611
252,nadi,-17.8,177.4167,29.0,65,40,6.17,FJ,1718155611
253,sao jose da coroa grande,-8.8978,-35.1478,24.92,85,13,3.3,BR,1718155611
254,bejaia,36.7559,5.0843,17.6,77,0,2.06,DZ,1718155611
255,nueve de julio,-35.4444,-60.8831,13.31,95,100,2.4,AR,1718155472
256,mariental,-24.6333,17.9667,14.47,38,32,4.9,NA,1718155611
257,queenstown,-31.8976,26.8753,10.35,33,2,3.97,ZA,1718155611
258,ciudad del carmen,18.6333,-91.8333,30.02,79,75,0.0,MX,1718155611
259,dudinka,69.4058,86.1778,5.38,85,63,4.92,RU,1718155611
260,hutchinson island south,27.2995,-80.2205,25.59,93,100,4.92,US,1718155612
261,iskateley,67.6803,53.1512,6.68,90,100,3.58,RU,1718155612
262,smolenskaya,44.7887,38.8018,22.09,87,9,1.74,RU,1718155612
263,kitakata,37.65,139.8667,27.73,49,74,1.32,JP,1718155612
264,badiyah,22.45,58.8,29.4,53,0,2.58,OM,1718155612
265,toliara,-23.35,43.6667,19.0,78,0,6.91,MG,1718155612
266,shendi,16.6915,33.4341,32.82,9,100,3.74,SD,1718155612
267,saynshand,44.8824,110.1163,22.97,43,42,3.06,MN,1718155612
268,howard springs,-12.497,131.047,27.95,64,55,2.8,AU,1718155612
269,tabou,4.423,-7.3528,26.09,82,100,4.33,CI,1718155612
270,luderitz,-26.6481,15.1594,13.59,88,49,4.21,NA,1718155612
271,richards bay,-28.783,32.0377,17.27,61,43,7.11,ZA,1718155612
272,utrik,11.2278,169.8474,27.92,82,24,9.78,MH,1718155612
273,pitimbu,-7.4706,-34.8086,24.33,85,49,4.6,BR,1718155612
274,tamanrasset,22.785,5.5228,25.95,11,0,3.09,DZ,1718155612
275,selibaby,15.159,-12.1829,35.75,23,2,3.24,MR,1718155613
276,nacala,-14.5428,40.6728,19.2,84,0,4.92,MZ,1718155613
277,tazovsky,67.4667,78.7,4.59,59,86,0.95,RU,1718155613
278,qaqortoq,60.7167,-46.0333,1.88,99,100,2.58,GL,1718155613
279,kargasok,59.0556,80.8572,18.31,68,100,2.24,RU,1718155613
280,dezhou,37.4486,116.2925,33.07,27,100,3.61,CN,1718155613
281,taro,-8.3862,115.28,24.0,89,49,1.3,ID,1718155613
282,arkhangel'sk,64.5401,40.5433,13.06,100,40,2.0,RU,1718155613
283,moose jaw,50.4001,-105.5344,25.14,33,0,2.57,CA,1718155613
284,lamu,-2.2717,40.902,25.61,79,44,8.36,KE,1718155613
285,farasan,16.7022,42.1183,30.56,72,3,3.25,SA,1718155613
286,hastings,50.8552,0.5729,10.85,85,100,4.05,GB,1718155392
287,remire-montjoly,4.9167,-52.2667,26.02,94,100,0.51,GF,1718155613
288,chui,-33.6971,-53.4616,14.72,93,100,4.28,UY,1718155613
289,monitos,8.25,-76.05,26.25,88,95,1.64,CO,1718155613
290,fortaleza,-3.7227,-38.5247,27.07,83,0,1.03,BR,1718155511
291,east london,-33.0153,27.9116,20.77,31,0,4.08,ZA,1718155613
292,bodo,67.28,14.405,9.32,97,75,3.09,NO,1718155570
293,hirara,24.8,125.2833,29.92,89,40,9.26,JP,1718155614
294,the pas,53.8251,-101.2541,13.01,82,75,3.09,CA,1718155614
295,hopelchen,19.7667,-89.85,25.81,95,100,0.91,MX,1718155614
296,mandleshwar,22.1833,75.6667,30.89,58,97,6.12,IN,1718155614
297,tinajo,29.0788,-13.7081,20.49,56,100,7.2,ES,1718155614
298,kalevala,65.2,31.1667,10.61,88,93,2.68,RU,1718155614
299,itupiranga,-5.1347,-49.3267,25.18,67,93,0.72,BR,1718155614
300,port alfred,-33.5906,26.891,21.21,39,33,1.34,ZA,1718155444
301,ihosy,-22.4,46.1167,15.48,94,99,5.58,MG,1718155614
302,constantia,44.1833,28.65,21.5,70,82,4.24,RO,1718155332
303,zhangjiagang,31.865,120.5389,26.86,70,71,1.32,CN,1718155614
304,tongliao,43.6125,122.2653,25.47,47,0,5.01,CN,1718155614
305,vadso,70.0744,29.7487,6.09,87,75,1.03,NO,1718155614
306,chernyshevskiy,63.0128,112.4714,21.74,41,36,1.82,RU,1718155614
307,lianhe,47.1333,129.2667,14.65,97,100,1.61,CN,1718155614
308,elverum,60.8819,11.5623,6.14,86,79,1.47,NO,1718155331
309,novyy urgal,51.0736,132.5642,17.34,50,42,1.58,RU,1718155614
310,bulayevo,54.9056,70.4439,13.92,88,9,5.92,KZ,1718155614
311,kasongo-lunda,-6.4667,16.8167,17.98,45,11,0.97,CD,1718155615
312,qamdo,31.1667,97.2333,12.52,60,34,0.49,CN,1718155615
313,karratha,-20.7377,116.8463,22.68,38,0,1.92,AU,1718155615
314,sierra grande,-41.606,-65.3557,13.4,47,100,4.36,AR,1718155615
315,zaragoza,41.6561,-0.8773,15.57,59,0,8.23,ES,1718155471
316,ola,59.5833,151.2833,13.41,71,98,4.12,RU,1718155615
317,nusaybin,37.0778,41.2178,26.48,27,0,1.85,TR,1718155615
318,afaahiti,-17.75,-149.2833,26.93,71,91,8.67,PF,1718155391
319,eyl,7.9803,49.8164,26.66,67,100,8.71,SO,1718155615
320,weno,7.4515,151.8468,31.97,74,40,3.6,FM,1718155615
321,saint-pierre,-21.3393,55.4781,21.82,83,75,4.12,RE,1718155615
322,mugia,43.1041,-9.2179,12.73,78,99,7.78,ES,1718155615
323,kuqa,41.7278,82.9364,26.45,25,8,2.39,CN,1718155615
324,omutinskiy,56.4745,67.6709,14.49,82,100,2.61,RU,1718155615
325,tergnier,49.6561,3.3011,6.16,92,1,1.56,FR,1718155615
326,hilton head island,32.2163,-80.7526,26.66,67,0,1.34,US,1718155615
327,yanta,36.2411,115.6672,35.5,30,0,6.0,CN,1718155615
328,bijie,27.3125,105.2942,20.49,64,95,1.74,CN,1718155615
329,tokar,18.4254,37.729,31.66,25,26,3.35,SD,1718155615
330,udaipura,23.0833,78.5,32.68,39,2,4.37,IN,1718155616
331,antonio enes,-16.2325,39.9086,18.92,91,48,4.65,MZ,1718155616
332,penzance,50.1186,-5.5371,10.38,73,15,4.74,GB,1718155616
333,san lawrenz,36.0553,14.204,22.7,91,40,2.37,MT,1718155616
334,dan sadau,11.2962,6.4952,23.37,86,100,1.87,NG,1718155329
335,vilyuysk,63.7553,121.6247,19.44,37,100,2.68,RU,1718155616
336,hamilton,39.1834,-84.5333,20.47,58,0,2.06,US,1718155616
337,ikalamavony,-21.15,46.5833,15.67,89,100,2.23,MG,1718155616
338,ocean acres,39.7435,-74.281,19.82,79,100,0.84,US,1718155616
339,swakopmund,-22.6833,14.5333,13.88,89,42,1.23,NA,1718155616
340,truro,50.2653,-5.0544,12.6,82,75,5.66,GB,1718155616
341,hepo,23.4308,115.8299,29.98,76,74,1.9,CN,1718155616
342,melekeok village,7.4957,134.6367,31.31,74,75,2.57,PW,1718155616
343,nagqu,31.5,92.0,7.88,73,29,4.13,CN,1718155616
344,hays,30.0502,-98.0336,24.34,90,100,4.76,US,1718155616
345,tarawa,1.419,172.984,31.05,74,20,4.12,KI,1718155616
346,salalah,17.0151,54.0924,29.05,79,40,2.06,OM,1718155616
347,lautoka,-17.6167,177.4667,28.92,65,40,6.17,FJ,1718155329
348,coquimbo,-29.9533,-71.3436,10.85,100,100,1.54,CL,1718155324
349,ichinohe,40.2069,141.3017,26.92,46,0,1.91,JP,1718155616
350,west helena,34.5507,-90.6418,23.82,62,75,2.99,US,1718155333
351,bonthe,7.5264,-12.505,26.25,87,100,2.93,SL,1718155617
352,ambalangoda,6.2355,80.0538,28.32,84,98,6.57,LK,1718155617
353,byron bay,-28.65,153.6167,21.51,47,99,6.14,AU,1718155367
354,bennettsville,34.6174,-79.6848,26.16,77,0,1.54,US,1718155617
355,bel ombre,-4.6167,55.4167,26.91,83,40,2.57,SC,1718155617
356,barra de santo antonio,-9.4047,-35.5072,24.6,81,12,2.08,BR,1718155617
357,camden,39.7835,-74.9663,20.97,80,100,0.45,US,1718155617
358,lazaro cardenas,17.9583,-102.2,27.4,76,79,3.17,MX,1718155617
359,bambanglipuro,-7.95,110.2833,26.88,80,100,2.11,ID,1718155617
360,mytilene,39.11,26.5547,24.95,53,3,1.04,GR,1718155617
361,bianzhuang,34.8486,118.0447,30.15,50,3,3.06,CN,1718155617
362,huatabampo,26.8333,-109.6333,38.21,15,4,9.96,MX,1718155617
363,tucurui,-3.7661,-49.6725,26.47,67,99,1.2,BR,1718155617
364,port saint john's,-31.6229,29.5448,16.24,50,100,3.21,ZA,1718155617
365,shamva,-17.3116,31.5756,7.52,85,1,1.25,ZW,1718155617
366,mount gambier,-37.8333,140.7667,11.19,60,100,3.68,AU,1718155617
367,sarakhs,36.5449,61.1577,29.55,23,0,2.76,IR,1718155617
368,dese,11.1333,39.6333,13.71,75,13,1.48,ET,1718155617
369,kyzyl-mazhalyk,51.1333,90.6,14.95,78,97,0.89,RU,1718155617
370,obo,5.3998,26.4869,20.52,99,100,1.5,CF,1718155617
371,tsiombe,-25.3,45.4833,18.09,88,100,5.13,MG,1718155618
372,mbandaka,0.0487,18.2603,23.68,63,100,0.46,CD,1718155618
373,yamada,39.4667,141.95,22.79,62,3,1.79,JP,1718155618
374,taoudenni,22.6783,-3.9836,35.71,12,0,7.94,ML,1718155618
375,dordrecht,51.81,4.6736,11.7,81,99,0.45,NL,1718155618
376,phan thiet,10.9333,108.1,29.94,67,40,3.81,VN,1718155618
377,labrador city,52.9463,-66.9114,15.1,43,75,1.54,CA,1718155618
378,minas de marcona,-15.2119,-75.1103,14.06,77,97,2.29,PE,1718155618
379,christchurch,-43.5333,172.6333,10.11,68,6,5.14,NZ,1718155338
380,alofi,-19.0595,-169.9187,26.94,74,75,6.69,NU,1718155618
381,camana,-16.6228,-72.7111,17.73,86,100,3.53,PE,1718155618
382,kujang-up,39.8672,126.0303,22.36,65,100,1.81,KP,1718155618
383,chipinge,-20.1883,32.6236,8.81,95,48,1.01,ZW,1718155331
384,verkhnevilyuysk,63.4453,120.3167,20.13,41,52,1.89,RU,1718155618
385,namibe,-15.1961,12.1522,19.77,79,0,2.02,AO,1718155618
386,kavieng,-2.5744,150.7967,26.49,89,100,6.73,PG,1718155391
387,senec,48.2195,17.4004,15.01,74,20,3.09,SK,1718155618
388,malmberget,67.1753,20.6549,6.31,87,75,2.57,SE,1718155618
389,trubchevsk,52.5798,33.7644,17.31,98,100,1.55,RU,1718155618
390,puerto rico,-26.796,-55.024,18.84,78,0,1.3,AR,1718155055
391,sake,-1.5736,29.045,15.74,95,9,0.5,CD,1718155618
392,beloyarskiy,63.7119,66.6722,13.89,72,100,1.34,RU,1718155619
393,kalabo,-14.97,22.6814,10.0,59,0,2.78,ZM,1718155619
394,dabola,10.75,-11.1167,22.91,92,100,1.91,GN,1718155619
395,tongchuanshi,35.0806,109.0897,30.25,27,88,2.19,CN,1718155619
396,severo-yeniseyskiy,60.3725,93.0408,16.99,65,88,0.45,RU,1718155619
397,fort mcmurray,56.7268,-111.381,19.77,48,75,3.6,CA,1718155619
398,meulaboh,4.1363,96.1285,25.79,89,100,1.28,ID,1718155619
399,guatire,10.4762,-66.5427,23.5,99,82,1.46,VE,1718155619
400,pishin,30.5803,66.9961,22.7,13,0,0.49,PK,1718155619
401,itoman,26.1247,127.6694,27.43,96,75,8.23,JP,1718155619
402,mariinsk,56.2139,87.7472,16.57,72,0,4.62,RU,1718155619
403,sitka,57.0531,-135.33,11.94,66,100,4.63,US,1718155619
404,plastun,44.7561,136.2939,15.19,75,53,2.58,RU,1718155619
405,ulsteinvik,62.3432,5.8487,9.86,80,100,2.24,NO,1718155620
406,akureyri,65.6835,-18.0878,4.96,93,100,1.03,IS,1718155620
407,la junta,37.985,-103.5438,29.16,30,0,6.17,US,1718155620
408,kloulklubed,7.0419,134.2556,31.28,71,63,2.2,PW,1718155620
409,adrar,20.5022,-10.0711,30.17,21,4,6.81,MR,1718155620
410,castillos,-34.1667,-53.8333,14.39,89,100,3.83,UY,1718155620
411,portland,45.5234,-122.6762,23.89,49,20,5.14,US,1718155620
412,tuban,-6.8976,112.0649,26.79,81,11,1.93,ID,1718155620
413,bansgaon,26.5586,83.3481,31.01,38,1,4.28,IN,1718155620
414,montecristi,-1.05,-80.6667,22.9,78,75,3.6,EC,1718155620
415,hammerfest,70.6634,23.6821,10.25,81,75,4.12,NO,1718155620
416,mbake,14.7903,-15.908,24.7,63,100,3.98,SN,1718155621
417,pisco,-13.7,-76.2167,17.03,88,100,1.54,PE,1718155443
418,sinabang,2.4803,96.3801,26.89,82,100,0.53,ID,1718155621
419,nuriootpa,-34.4833,139.0,15.86,61,3,3.57,AU,1718155621
420,pesaro,43.9036,12.8903,21.99,75,100,0.89,IT,1718155621
421,bedum,53.3008,6.6028,10.55,89,95,3.46,NL,1718155621
422,lompoc,34.6391,-120.4579,27.23,79,0,3.6,US,1718155594
423,patia,2.069,-77.0527,23.0,76,13,0.26,CO,1718155621
424,villa gesell,-37.2639,-56.973,13.36,86,100,3.97,AR,1718155621
425,majuro,7.0897,171.3803,27.98,83,100,2.57,MH,1718155621
426,berdigestyakh,62.0989,126.6992,21.21,30,61,3.63,RU,1718155621
427,kawalu,-7.3817,108.2082,24.5,89,100,1.21,ID,1718155621
428,mocimboa,-11.3167,40.35,20.33,74,5,5.17,MZ,1718155621
429,puerto deseado,-47.7503,-65.8938,7.93,86,99,3.13,AR,1718155523
430,mar del plata,-38.0023,-57.5575,13.38,91,0,8.05,AR,1718155400
431,narasannapeta,18.4167,84.05,29.46,83,93,3.33,IN,1718155621
432,atafu village,-8.5421,-172.5159,28.5,76,99,3.33,TK,1718155621
433,tolanaro,-25.0319,46.9987,18.04,94,40,5.14,MG,1718155621
434,kukawa,12.9234,13.5606,27.38,55,100,1.13,NG,1718155621
435,acajutla,13.5928,-89.8275,27.57,84,100,3.1,SV,1718155621
436,rongelap,11.1635,166.8941,28.11,82,55,8.86,MH,1718155622
437,wynyard,-41.0,145.7167,10.03,60,20,4.94,AU,1718155622
438,mournies,35.4764,24.0092,41.04,23,0,3.09,GR,1718155622
439,aykhal,66.0,111.5,20.44,38,62,3.41,RU,1718155622
440,poronaysk,49.2167,143.1167,7.62,96,100,3.12,RU,1718155622
441,kalmunai,7.4167,81.8167,27.16,79,100,3.48,LK,1718155622
442,boden,65.8252,21.6886,10.0,90,94,1.66,SE,1718155622
443,caleta de carquin,-11.0925,-77.6267,18.25,83,90,3.17,PE,1718155622
444,naze,28.3667,129.4833,23.51,95,100,9.21,JP,1718155363
445,rio verde de mato grosso,-18.9181,-54.8442,23.14,33,0,2.0,BR,1718155622
446,flying fish cove,-10.4217,105.6791,26.82,89,75,5.14,CX,1718155622
447,goyty,43.1642,45.6228,18.65,88,50,1.85,RU,1718155622
448,kish,26.5578,54.0194,30.15,84,0,0.0,IR,1718155622
449,larache,35.1932,-6.1557,18.44,84,8,2.07,MA,1718155622
450,pingyin,36.2831,116.4453,33.77,32,100,5.54,CN,1718155622
451,madang,-5.2246,145.7966,29.97,67,100,0.78,PG,1718155622
452,ust'-ilimsk,58.0006,102.6619,18.02,60,0,1.79,RU,1718155620
453,duong dong,10.2167,103.9667,31.0,70,20,4.12,VN,1718155623
454,saint-joseph,-21.3667,55.6167,21.21,84,100,7.24,RE,1718155623
455,tonnerre,47.8563,3.9737,6.02,92,0,1.0,FR,1718155623
456,pemba,-12.974,40.5178,21.28,74,0,7.25,MZ,1718155623
457,sandnessjoen,66.0217,12.6316,7.29,83,100,5.68,NO,1718155623
458,sur,22.5667,59.5289,31.26,51,0,3.72,OM,1718155623
459,ciudad rodrigo,40.6,-6.5333,13.76,68,0,1.14,ES,1718155623
460,yigo village,13.5361,144.8886,26.16,94,20,3.6,GU,1718155623
461,miri,4.4148,114.0089,32.08,66,20,0.0,MY,1718155623
462,nuuk,64.1835,-51.7216,3.34,100,100,12.35,GL,1718155440
463,zabol,32.25,67.25,20.27,15,0,0.7,AF,1718155623
464,bratsk,56.1325,101.6142,19.27,65,10,2.68,RU,1718155623
465,brigantine,39.4101,-74.3646,19.44,79,100,0.0,US,1718155466
466,bomi,7.2461,-11.5258,24.64,96,100,0.97,SL,1718155623
467,rabaul,-4.1967,152.1721,29.59,70,27,3.57,PG,1718155623
468,codo,-4.4553,-43.8856,24.49,71,65,1.2,BR,1718155623
469,marshall,34.3834,-86.3333,26.17,65,0,2.06,US,1718155623
470,jurm,36.8648,70.8342,17.81,52,0,1.38,AF,1718155623
471,bhiwandi,19.3,73.0667,27.92,74,46,1.89,IN,1718155624
472,nantucket,41.2835,-70.0995,17.22,77,5,2.24,US,1718155357
473,el porvenir,13.7617,-87.3458,25.63,93,100,1.05,HN,1718155624
474,nova sintra,14.8667,-24.7167,24.13,83,3,8.2,CV,1718155624
475,massenya,11.4039,16.1705,27.99,55,69,1.69,TD,1718155570
476,xining,36.6167,101.7667,15.99,55,100,1.35,CN,1718155624
477,nguigmi,14.2495,13.1092,27.31,56,85,3.14,NE,1718155624
478,karatau,43.1667,70.4667,20.99,48,2,2.75,KZ,1718155624
479,aral,40.5156,81.2636,26.79,27,41,1.75,CN,1718155624
480,horta,38.5333,-28.6333,17.23,87,90,2.68,PT,1718155624
481,el calafate,-50.3408,-72.2768,1.83,85,78,0.31,AR,1718155624
482,chanika,-5.4167,38.0167,14.65,88,74,1.33,TZ,1718155624
483,maharaganj,27.1333,83.5667,30.94,48,2,6.23,IN,1718155624
484,zhangye,38.9342,100.4517,25.79,25,100,2.08,CN,1718155624
485,bintulu,3.1667,113.0333,28.23,89,20,1.54,MY,1718155624
486,maun,-19.9833,23.4167,8.98,53,0,2.06,BW,1718155624
487,ivdel',60.6911,60.4206,16.77,68,100,1.34,RU,1718155624
488,monrovia,6.3005,-10.7969,25.87,88,100,4.21,LR,1718155624
489,hebi,35.8992,114.1925,35.08,20,7,1.7,CN,1718155624
490,north battleford,52.7834,-108.2847,23.05,38,0,5.14,CA,1718155624
491,dickinson,29.4608,-95.0513,31.1,76,75,0.0,US,1718155483
492,guerrero negro,27.9769,-114.0611,18.61,74,0,9.47,MX,1718155625
493,t'ongch'on-up,38.9539,127.8917,26.02,45,94,4.59,KP,1718155625
494,djibouti,11.5,42.5,30.45,41,10,1.62,DJ,1718155625
495,salerno,40.45,15.2667,18.15,79,100,1.79,IT,1718155625
496,i-n-salah,27.1935,2.4607,36.03,13,74,2.93,DZ,1718155625
497,torquay,50.4638,-3.5143,9.96,83,10,0.45,GB,1718155625
498,antsiranana,-12.2787,49.2917,23.84,74,100,2.83,MG,1718155625
499,mejit,10.2753,170.8646,28.07,82,18,9.76,MH,1718155625
500,mandalgovi,45.7625,106.2708,17.37,50,59,8.27,MN,1718155625
501,abu jibeha,11.4562,31.2285,26.44,66,34,1.88,SD,1718155625
502,bar-sur-aube,48.25,4.5833,6.35,93,0,0.68,FR,1718155625
503,dumas,35.8656,-101.9732,26.45,47,0,5.14,US,1718155625
504,goondiwindi,-28.55,150.3167,18.02,44,0,6.51,AU,1718155625
505,porto novo,6.4965,2.6036,24.84,91,69,1.83,BJ,1718155625
506,souillac,-20.5167,57.5167,23.21,78,40,5.66,MU,1718155625
507,vuokatti,64.146,28.2697,9.92,95,37,1.91,FI,1718155625
508,odacho-oda,35.1833,132.5,26.43,72,62,2.36,JP,1718155625
509,sabzevar,36.2126,57.6819,26.52,24,12,3.02,IR,1718155625
510,honcho,35.6931,139.9833,28.47,52,75,3.6,JP,1718155626
511,tangalle,6.024,80.7911,27.09,89,100,6.29,LK,1718155626
512,norman gardens,-23.3224,150.5393,24.55,70,0,4.63,AU,1718155626
513,masterton,-40.9597,175.6575,12.16,59,11,1.03,NZ,1718155626
514,watsa,3.0372,29.5355,17.13,99,100,0.78,CD,1718155626
515,novaya igirma,57.1334,103.9112,17.66,68,4,1.81,RU,1718155626
516,nyurba,63.2842,118.3319,20.11,50,84,2.18,RU,1718155626
517,greenville,35.6127,-77.3663,26.09,71,40,2.06,US,1718155537
518,novotroitsk,51.203,58.3266,15.39,65,0,2.12,RU,1718155626
519,aroma,15.8167,36.1333,28.8,45,100,5.03,SD,1718155513
520,port shepstone,-30.7414,30.455,15.65,47,100,2.6,ZA,1718155626
521,ulanhot,46.0833,122.0833,22.31,50,98,4.95,CN,1718155626
522,malvan,16.0667,73.4667,27.14,80,100,2.55,IN,1718155626
523,kangding,30.0513,101.9603,17.31,61,73,1.97,CN,1718155626
524,mangrol,21.1167,70.1167,29.55,71,100,5.23,IN,1718155626
525,arak,34.0917,49.6892,19.36,25,0,1.76,IR,1718155589
526,baijiantan,45.6333,85.1833,30.21,26,99,8.88,CN,1718155627
527,peace river,56.2501,-117.286,16.17,72,75,3.09,CA,1718155627
528,gaspe,48.8334,-64.4819,14.12,94,20,1.03,CA,1718155627
529,coahuayana de hidalgo,18.7,-103.6583,27.23,76,78,1.79,MX,1718155627
530,selfoss,63.9331,-20.9971,8.36,93,23,2.12,IS,1718155627
531,kandyagash,49.4744,57.4233,20.56,52,8,2.6,KZ,1718155627
532,marabba,12.35,32.1833,27.94,57,26,4.51,SD,1718155627
533,plettenberg bay,-34.0527,23.3716,14.8,87,0,2.52,ZA,1718155627
534,negreira,42.904,-8.7427,11.77,79,82,2.68,ES,1718155627
535,bucerias,20.75,-105.3333,27.21,78,100,3.09,MX,1718155627
536,"laikit, laikit ii (dimembe)",1.4792,124.9735,28.47,70,20,0.51,ID,1718155627
537,broome,42.2506,-75.833,15.95,89,100,2.06,US,1718155627
538,sosnovoborsk,56.1325,93.3589,15.9,63,0,2.22,RU,1718155627
539,chandler,33.3062,-111.8412,43.7,7,0,5.14,US,1718155332
540,jemna,33.5778,9.0147,25.63,59,100,9.13,TN,1718155627
541,reggane,26.7158,0.1714,36.81,12,4,4.26,DZ,1718155627
542,castlegar,49.2998,-117.6689,24.38,25,28,4.76,CA,1718155627
543,al qusayr,34.5091,36.5798,22.46,40,0,1.07,SY,1718155627
544,tianshui,34.5439,105.6897,24.54,44,82,1.0,CN,1718155627
545,homer,59.6425,-151.5483,12.11,70,100,4.47,US,1718155443
546,kidal,18.4411,1.4078,33.93,19,0,3.38,ML,1718155628
547,kill devil hills,36.0307,-75.676,21.66,83,40,3.6,US,1718155628
548,gangneung,37.7556,128.8961,30.31,40,9,0.63,KR,1718155628
549,la sarre,48.8002,-79.1996,13.57,80,0,2.59,CA,1718155546
550,chitipa,-9.7024,33.2697,11.92,95,77,2.49,MW,1718155628
551,barra da estiva,-13.6261,-41.3269,16.04,91,94,1.67,BR,1718155628
552,gitega,-3.5,29.95,14.04,78,6,1.31,BI,1718155628
553,constitucion,-35.3333,-72.4167,13.9,83,100,7.29,CL,1718155628
554,murzuq,25.9155,13.9184,31.55,12,0,4.54,LY,1718155628
555,malanje,-9.5402,16.341,13.28,49,6,1.98,AO,1718155628
556,darwin,-12.4611,130.8418,27.99,48,0,3.6,AU,1718155628
557,xinyuan,37.3,99.0,9.34,66,100,1.84,CN,1718155628
558,tari,12.4086,4.4914,26.82,69,100,4.38,NG,1718155628
559,maragogi,-9.0122,-35.2225,24.32,87,24,2.27,BR,1718155628
560,sao caetano de odivelas,-0.75,-48.02,23.56,97,96,2.41,BR,1718155628
561,taulaga,-11.0553,-171.0883,28.66,76,44,5.34,AS,1718155628
562,portoferraio,42.8115,10.3146,21.18,94,36,3.6,IT,1718155628
563,urucara,-2.5364,-57.76,23.87,97,44,0.97,BR,1718155628
564,anahuac,27.2333,-100.15,37.83,27,0,5.33,MX,1718155628
565,selsey,50.735,-0.7898,11.23,82,100,3.85,GB,1718155629
566,florida,28.7505,-82.5001,26.67,86,40,0.0,US,1718155367
567,kapuskasing,49.4169,-82.4331,20.05,42,75,2.06,CA,1718155629
568,luwingu,-10.2621,29.9271,9.15,83,92,2.2,ZM,1718155629
569,dunedin,-45.8742,170.5036,8.22,76,86,4.02,NZ,1718155629
570,fabens,31.5023,-106.1586,38.62,10,0,2.23,US,1718155629
571,holualoa,19.6228,-155.9522,26.42,81,100,5.14,US,1718155629
572,martuk,50.7475,56.5056,19.17,63,0,3.17,KZ,1718155629
